{
  "horizon_end": "2025-07-19T12:00:00Z",
  "horizon_start": "2025-07-17T12:00:00Z",
  "targets": [
    {
      "altitude_m": 0.0,
      "expected_revisit_period_hours": 8.0,
      "id": "target_001",
      "latitude_deg": 4.7111,
      "longitude_deg": -74.0722,
      "max_slant_range_m": 1800000.0,
      "min_duration_sec": 30.0,
      "min_elevation_deg": 20.0,
      "name": "Bogot\u00e1, Colombia"
    },
    {
      "altitude_m": 0.0,
      "expected_revisit_period_hours": 8.0,
      "id": "target_002",
      "latitude_deg": 30.0444,
      "longitude_deg": 31.2358,
      "max_slant_range_m": 1800000.0,
      "min_duration_sec": 30.0,
      "min_elevation_deg": 20.0,
      "name": "Cairo, Egypt"
    },
    {
      "altitude_m": 0.0,
      "expected_revisit_period_hours": 8.0,
      "id": "target_003",
      "latitude_deg": -22.9009,
      "longitude_deg": -47.0573,
      "max_slant_range_m": 1800000.0,
      "min_duration_sec": 30.0,
      "min_elevation_deg": 20.0,
      "name": "Campinas, Brazil"
    },
    {
      "altitude_m": 0.0,
      "expected_revisit_period_hours": 8.0,
      "id": "target_004",
      "latitude_deg": -43.5311,
      "longitude_deg": 172.6361,
      "max_slant_range_m": 1800000.0,
      "min_duration_sec": 30.0,
      "min_elevation_deg": 20.0,
      "name": "Christchurch, New Zealand"
    },
    {
      "altitude_m": 0.0,
      "expected_revisit_period_hours": 8.0,
      "id": "target_005",
      "latitude_deg": 32.7935,
      "longitude_deg": -96.7667,
      "max_slant_range_m": 1800000.0,
      "min_duration_sec": 30.0,
      "min_elevation_deg": 20.0,
      "name": "Dallas, United States"
    },
    {
      "altitude_m": 0.0,
      "expected_revisit_period_hours": 8.0,
      "id": "target_006",
      "latitude_deg": 28.61,
      "longitude_deg": 77.23,
      "max_slant_range_m": 1800000.0,
      "min_duration_sec": 30.0,
      "min_elevation_deg": 20.0,
      "name": "Delhi, India"
    },
    {
      "altitude_m": 0.0,
      "expected_revisit_period_hours": 8.0,
      "id": "target_007",
      "latitude_deg": 10.7756,
      "longitude_deg": 106.7019,
      "max_slant_range_m": 1800000.0,
      "min_duration_sec": 30.0,
      "min_elevation_deg": 20.0,
      "name": "Ho Chi Minh City, Vietnam"
    },
    {
      "altitude_m": 0.0,
      "expected_revisit_period_hours": 8.0,
      "id": "target_008",
      "latitude_deg": 41.0136,
      "longitude_deg": 28.955,
      "max_slant_range_m": 1800000.0,
      "min_duration_sec": 30.0,
      "min_elevation_deg": 20.0,
      "name": "Istanbul, Turkey"
    },
    {
      "altitude_m": 0.0,
      "expected_revisit_period_hours": 8.0,
      "id": "target_009",
      "latitude_deg": -4.3219,
      "longitude_deg": 15.3119,
      "max_slant_range_m": 1800000.0,
      "min_duration_sec": 30.0,
      "min_elevation_deg": 20.0,
      "name": "Kinshasa, Congo (Kinshasa)"
    },
    {
      "altitude_m": 0.0,
      "expected_revisit_period_hours": 8.0,
      "id": "target_010",
      "latitude_deg": -37.8142,
      "longitude_deg": 144.9631,
      "max_slant_range_m": 1800000.0,
      "min_duration_sec": 30.0,
      "min_elevation_deg": 20.0,
      "name": "Melbourne, Australia"
    },
    {
      "altitude_m": 0.0,
      "expected_revisit_period_hours": 8.0,
      "id": "target_011",
      "latitude_deg": 19.4333,
      "longitude_deg": -99.1333,
      "max_slant_range_m": 1800000.0,
      "min_duration_sec": 30.0,
      "min_elevation_deg": 20.0,
      "name": "Mexico City, Mexico"
    },
    {
      "altitude_m": 0.0,
      "expected_revisit_period_hours": 8.0,
      "id": "target_012",
      "latitude_deg": -1.2864,
      "longitude_deg": 36.8172,
      "max_slant_range_m": 1800000.0,
      "min_duration_sec": 30.0,
      "min_elevation_deg": 20.0,
      "name": "Nairobi, Kenya"
    },
    {
      "altitude_m": 0.0,
      "expected_revisit_period_hours": 8.0,
      "id": "target_013",
      "latitude_deg": 40.6943,
      "longitude_deg": -73.9249,
      "max_slant_range_m": 1800000.0,
      "min_duration_sec": 30.0,
      "min_elevation_deg": 20.0,
      "name": "New York, United States"
    },
    {
      "altitude_m": 0.0,
      "expected_revisit_period_hours": 8.0,
      "id": "target_014",
      "latitude_deg": 48.8567,
      "longitude_deg": 2.3522,
      "max_slant_range_m": 1800000.0,
      "min_duration_sec": 30.0,
      "min_elevation_deg": 20.0,
      "name": "Paris, France"
    },
    {
      "altitude_m": 0.0,
      "expected_revisit_period_hours": 8.0,
      "id": "target_015",
      "latitude_deg": 4.8242,
      "longitude_deg": 7.0336,
      "max_slant_range_m": 1800000.0,
      "min_duration_sec": 30.0,
      "min_elevation_deg": 20.0,
      "name": "Port Harcourt, Nigeria"
    },
    {
      "altitude_m": 0.0,
      "expected_revisit_period_hours": 8.0,
      "id": "target_016",
      "latitude_deg": -25.7461,
      "longitude_deg": 28.1881,
      "max_slant_range_m": 1800000.0,
      "min_duration_sec": 30.0,
      "min_elevation_deg": 20.0,
      "name": "Pretoria, South Africa"
    },
    {
      "altitude_m": 0.0,
      "expected_revisit_period_hours": 8.0,
      "id": "target_017",
      "latitude_deg": 31.2286,
      "longitude_deg": 121.4747,
      "max_slant_range_m": 1800000.0,
      "min_duration_sec": 30.0,
      "min_elevation_deg": 20.0,
      "name": "Shanghai, China"
    },
    {
      "altitude_m": 0.0,
      "expected_revisit_period_hours": 8.0,
      "id": "target_018",
      "latitude_deg": 22.5415,
      "longitude_deg": 114.0596,
      "max_slant_range_m": 1800000.0,
      "min_duration_sec": 30.0,
      "min_elevation_deg": 20.0,
      "name": "Shenzhen, China"
    }
  ]
}
