{
  "horizon_end": "2025-07-19T12:00:00Z",
  "horizon_start": "2025-07-17T12:00:00Z",
  "targets": [
    {
      "altitude_m": 0.0,
      "expected_revisit_period_hours": 8.0,
      "id": "target_001",
      "latitude_deg": -25.0667,
      "longitude_deg": -130.0833,
      "max_slant_range_m": 1800000.0,
      "min_duration_sec": 30.0,
      "min_elevation_deg": 20.0,
      "name": "Adamstown, Pitcairn Islands"
    },
    {
      "altitude_m": 0.0,
      "expected_revisit_period_hours": 8.0,
      "id": "target_002",
      "latitude_deg": 25.3608,
      "longitude_deg": 49.5997,
      "max_slant_range_m": 1800000.0,
      "min_duration_sec": 30.0,
      "min_elevation_deg": 20.0,
      "name": "Al Huf\u016bf, Saudi Arabia"
    },
    {
      "altitude_m": 0.0,
      "expected_revisit_period_hours": 8.0,
      "id": "target_003",
      "latitude_deg": 68.7831,
      "longitude_deg": 49.3036,
      "max_slant_range_m": 1800000.0,
      "min_duration_sec": 30.0,
      "min_elevation_deg": 20.0,
      "name": "Bugrino, Russia"
    },
    {
      "altitude_m": 0.0,
      "expected_revisit_period_hours": 8.0,
      "id": "target_004",
      "latitude_deg": -4.8278,
      "longitude_deg": -42.1686,
      "max_slant_range_m": 1800000.0,
      "min_duration_sec": 30.0,
      "min_elevation_deg": 20.0,
      "name": "Campo Maior, Brazil"
    },
    {
      "altitude_m": 0.0,
      "expected_revisit_period_hours": 8.0,
      "id": "target_005",
      "latitude_deg": 29.5637,
      "longitude_deg": 106.5504,
      "max_slant_range_m": 1800000.0,
      "min_duration_sec": 30.0,
      "min_elevation_deg": 20.0,
      "name": "Chongqing, China"
    },
    {
      "altitude_m": 0.0,
      "expected_revisit_period_hours": 8.0,
      "id": "target_006",
      "latitude_deg": -29.9531,
      "longitude_deg": -71.3433,
      "max_slant_range_m": 1800000.0,
      "min_duration_sec": 30.0,
      "min_elevation_deg": 20.0,
      "name": "Coquimbo, Chile"
    },
    {
      "altitude_m": 0.0,
      "expected_revisit_period_hours": 8.0,
      "id": "target_007",
      "latitude_deg": 47.8968,
      "longitude_deg": -122.1818,
      "max_slant_range_m": 1800000.0,
      "min_duration_sec": 30.0,
      "min_elevation_deg": 20.0,
      "name": "Eastmont, United States"
    },
    {
      "altitude_m": 0.0,
      "expected_revisit_period_hours": 8.0,
      "id": "target_008",
      "latitude_deg": -46.899,
      "longitude_deg": 168.127,
      "max_slant_range_m": 1800000.0,
      "min_duration_sec": 30.0,
      "min_elevation_deg": 20.0,
      "name": "Halfmoon Bay, New Zealand"
    },
    {
      "altitude_m": 0.0,
      "expected_revisit_period_hours": 8.0,
      "id": "target_009",
      "latitude_deg": -15.9251,
      "longitude_deg": -5.7179,
      "max_slant_range_m": 1800000.0,
      "min_duration_sec": 30.0,
      "min_elevation_deg": 20.0,
      "name": "Jamestown, Saint Helena, Ascension, and Tristan da Cunha"
    },
    {
      "altitude_m": 0.0,
      "expected_revisit_period_hours": 8.0,
      "id": "target_010",
      "latitude_deg": 22.091,
      "longitude_deg": -159.3521,
      "max_slant_range_m": 1800000.0,
      "min_duration_sec": 30.0,
      "min_elevation_deg": 20.0,
      "name": "Kapaa, United States"
    },
    {
      "altitude_m": 0.0,
      "expected_revisit_period_hours": 8.0,
      "id": "target_011",
      "latitude_deg": 56.3167,
      "longitude_deg": 160.8333,
      "max_slant_range_m": 1800000.0,
      "min_duration_sec": 30.0,
      "min_elevation_deg": 20.0,
      "name": "Klyuchi, Russia"
    },
    {
      "altitude_m": 0.0,
      "expected_revisit_period_hours": 8.0,
      "id": "target_012",
      "latitude_deg": 64.1767,
      "longitude_deg": -51.7361,
      "max_slant_range_m": 1800000.0,
      "min_duration_sec": 30.0,
      "min_elevation_deg": 20.0,
      "name": "Nuuk, Greenland"
    },
    {
      "altitude_m": 0.0,
      "expected_revisit_period_hours": 8.0,
      "id": "target_013",
      "latitude_deg": -14.274,
      "longitude_deg": -170.7046,
      "max_slant_range_m": 1800000.0,
      "min_duration_sec": 30.0,
      "min_elevation_deg": 20.0,
      "name": "Pago Pago, American Samoa"
    },
    {
      "altitude_m": 0.0,
      "expected_revisit_period_hours": 8.0,
      "id": "target_014",
      "latitude_deg": 19.8,
      "longitude_deg": -70.6833,
      "max_slant_range_m": 1800000.0,
      "min_duration_sec": 30.0,
      "min_elevation_deg": 20.0,
      "name": "Puerto Plata, Dominican Republic"
    },
    {
      "altitude_m": 0.0,
      "expected_revisit_period_hours": 8.0,
      "id": "target_015",
      "latitude_deg": -33.5817,
      "longitude_deg": 120.0469,
      "max_slant_range_m": 1800000.0,
      "min_duration_sec": 30.0,
      "min_elevation_deg": 20.0,
      "name": "Ravensthorpe, Australia"
    },
    {
      "altitude_m": 0.0,
      "expected_revisit_period_hours": 8.0,
      "id": "target_016",
      "latitude_deg": 37.9547,
      "longitude_deg": -8.8642,
      "max_slant_range_m": 1800000.0,
      "min_duration_sec": 30.0,
      "min_elevation_deg": 20.0,
      "name": "Sines, Portugal"
    },
    {
      "altitude_m": 0.0,
      "expected_revisit_period_hours": 8.0,
      "id": "target_017",
      "latitude_deg": -25.3054,
      "longitude_deg": 44.9762,
      "max_slant_range_m": 1800000.0,
      "min_duration_sec": 30.0,
      "min_elevation_deg": 20.0,
      "name": "Tranovaho, Madagascar"
    },
    {
      "altitude_m": 0.0,
      "expected_revisit_period_hours": 8.0,
      "id": "target_018",
      "latitude_deg": 7.4417,
      "longitude_deg": 151.8583,
      "max_slant_range_m": 1800000.0,
      "min_duration_sec": 30.0,
      "min_elevation_deg": 20.0,
      "name": "Weno, Micronesia, Federated States of"
    }
  ]
}
