{
  "horizon_end": "2025-07-19T12:00:00Z",
  "horizon_start": "2025-07-17T12:00:00Z",
  "targets": [
    {
      "altitude_m": 0.0,
      "expected_revisit_period_hours": 6.0,
      "id": "target_001",
      "latitude_deg": -25.0667,
      "longitude_deg": -130.0833,
      "max_slant_range_m": 1800000.0,
      "min_duration_sec": 30.0,
      "min_elevation_deg": 20.0,
      "name": "Adamstown, Pitcairn Islands"
    },
    {
      "altitude_m": 0.0,
      "expected_revisit_period_hours": 6.0,
      "id": "target_002",
      "latitude_deg": 8.67,
      "longitude_deg": 117.62,
      "max_slant_range_m": 1800000.0,
      "min_duration_sec": 30.0,
      "min_elevation_deg": 20.0,
      "name": "Batarasa, Philippines"
    },
    {
      "altitude_m": 0.0,
      "expected_revisit_period_hours": 6.0,
      "id": "target_003",
      "latitude_deg": -21.9331,
      "longitude_deg": 114.1281,
      "max_slant_range_m": 1800000.0,
      "min_duration_sec": 30.0,
      "min_elevation_deg": 20.0,
      "name": "Exmouth, Australia"
    },
    {
      "altitude_m": 0.0,
      "expected_revisit_period_hours": 6.0,
      "id": "target_004",
      "latitude_deg": -34.5828,
      "longitude_deg": 19.3522,
      "max_slant_range_m": 1800000.0,
      "min_duration_sec": 30.0,
      "min_elevation_deg": 20.0,
      "name": "Gansbaai, South Africa"
    },
    {
      "altitude_m": 0.0,
      "expected_revisit_period_hours": 6.0,
      "id": "target_005",
      "latitude_deg": 47.398,
      "longitude_deg": -92.9486,
      "max_slant_range_m": 1800000.0,
      "min_duration_sec": 30.0,
      "min_elevation_deg": 20.0,
      "name": "Hibbing, United States"
    },
    {
      "altitude_m": 0.0,
      "expected_revisit_period_hours": 6.0,
      "id": "target_006",
      "latitude_deg": 20.1333,
      "longitude_deg": 85.15,
      "max_slant_range_m": 1800000.0,
      "min_duration_sec": 30.0,
      "min_elevation_deg": 20.0,
      "name": "It\u0101m\u0101ti, India"
    },
    {
      "altitude_m": 0.0,
      "expected_revisit_period_hours": 6.0,
      "id": "target_007",
      "latitude_deg": -6.2058,
      "longitude_deg": 155.6227,
      "max_slant_range_m": 1800000.0,
      "min_duration_sec": 30.0,
      "min_elevation_deg": 20.0,
      "name": "Kieta, Papua New Guinea"
    },
    {
      "altitude_m": 0.0,
      "expected_revisit_period_hours": 6.0,
      "id": "target_008",
      "latitude_deg": -0.3603,
      "longitude_deg": 42.5489,
      "max_slant_range_m": 1800000.0,
      "min_duration_sec": 30.0,
      "min_elevation_deg": 20.0,
      "name": "Kismaayo, Somalia"
    },
    {
      "altitude_m": 0.0,
      "expected_revisit_period_hours": 6.0,
      "id": "target_009",
      "latitude_deg": 62.2,
      "longitude_deg": 34.2833,
      "max_slant_range_m": 1800000.0,
      "min_duration_sec": 30.0,
      "min_elevation_deg": 20.0,
      "name": "Kondopoga, Russia"
    },
    {
      "altitude_m": 0.0,
      "expected_revisit_period_hours": 6.0,
      "id": "target_010",
      "latitude_deg": 51.7167,
      "longitude_deg": 94.45,
      "max_slant_range_m": 1800000.0,
      "min_duration_sec": 30.0,
      "min_elevation_deg": 20.0,
      "name": "Kyzyl, Russia"
    },
    {
      "altitude_m": 0.0,
      "expected_revisit_period_hours": 6.0,
      "id": "target_011",
      "latitude_deg": 65.5842,
      "longitude_deg": -170.9889,
      "max_slant_range_m": 1800000.0,
      "min_duration_sec": 30.0,
      "min_elevation_deg": 20.0,
      "name": "Lavrentiya, Russia"
    },
    {
      "altitude_m": 0.0,
      "expected_revisit_period_hours": 6.0,
      "id": "target_012",
      "latitude_deg": 21.4133,
      "longitude_deg": -158.1701,
      "max_slant_range_m": 1800000.0,
      "min_duration_sec": 30.0,
      "min_elevation_deg": 20.0,
      "name": "Maili, United States"
    },
    {
      "altitude_m": 0.0,
      "expected_revisit_period_hours": 6.0,
      "id": "target_013",
      "latitude_deg": 29.2337,
      "longitude_deg": 19.2166,
      "max_slant_range_m": 1800000.0,
      "min_duration_sec": 30.0,
      "min_elevation_deg": 20.0,
      "name": "Mar\u0101dah, Libya"
    },
    {
      "altitude_m": 0.0,
      "expected_revisit_period_hours": 6.0,
      "id": "target_014",
      "latitude_deg": -3.4167,
      "longitude_deg": 10.65,
      "max_slant_range_m": 1800000.0,
      "min_duration_sec": 30.0,
      "min_elevation_deg": 20.0,
      "name": "Mayumba, Gabon"
    },
    {
      "altitude_m": 0.0,
      "expected_revisit_period_hours": 6.0,
      "id": "target_015",
      "latitude_deg": 5.6167,
      "longitude_deg": -54.4,
      "max_slant_range_m": 1800000.0,
      "min_duration_sec": 30.0,
      "min_elevation_deg": 20.0,
      "name": "Moengo, Suriname"
    },
    {
      "altitude_m": 0.0,
      "expected_revisit_period_hours": 6.0,
      "id": "target_016",
      "latitude_deg": -31.1069,
      "longitude_deg": -50.9208,
      "max_slant_range_m": 1800000.0,
      "min_duration_sec": 30.0,
      "min_elevation_deg": 20.0,
      "name": "Mostardas, Brazil"
    },
    {
      "altitude_m": 0.0,
      "expected_revisit_period_hours": 6.0,
      "id": "target_017",
      "latitude_deg": -0.9568,
      "longitude_deg": -90.9672,
      "max_slant_range_m": 1800000.0,
      "min_duration_sec": 30.0,
      "min_elevation_deg": 20.0,
      "name": "Puerto Villamil, Ecuador"
    },
    {
      "altitude_m": 0.0,
      "expected_revisit_period_hours": 6.0,
      "id": "target_018",
      "latitude_deg": 16.2793,
      "longitude_deg": -16.1398,
      "max_slant_range_m": 1800000.0,
      "min_duration_sec": 30.0,
      "min_elevation_deg": 20.0,
      "name": "Ross-B\u00e9tio, Senegal"
    },
    {
      "altitude_m": 0.0,
      "expected_revisit_period_hours": 6.0,
      "id": "target_019",
      "latitude_deg": 62.5333,
      "longitude_deg": -42.2167,
      "max_slant_range_m": 1800000.0,
      "min_duration_sec": 30.0,
      "min_elevation_deg": 20.0,
      "name": "Timmiarmiut, Greenland"
    },
    {
      "altitude_m": 0.0,
      "expected_revisit_period_hours": 6.0,
      "id": "target_020",
      "latitude_deg": -43.9514,
      "longitude_deg": -176.5611,
      "max_slant_range_m": 1800000.0,
      "min_duration_sec": 30.0,
      "min_elevation_deg": 20.0,
      "name": "Waitangi, New Zealand"
    },
    {
      "altitude_m": 0.0,
      "expected_revisit_period_hours": 6.0,
      "id": "target_021",
      "latitude_deg": 34.6939,
      "longitude_deg": 135.5022,
      "max_slant_range_m": 1800000.0,
      "min_duration_sec": 30.0,
      "min_elevation_deg": 20.0,
      "name": "\u014csaka, Japan"
    }
  ]
}
