{
  "horizon_end": "2025-07-19T12:00:00Z",
  "horizon_start": "2025-07-17T12:00:00Z",
  "targets": [
    {
      "altitude_m": 0.0,
      "expected_revisit_period_hours": 6.0,
      "id": "target_001",
      "latitude_deg": -34.9275,
      "longitude_deg": 138.6,
      "max_slant_range_m": 1800000.0,
      "min_duration_sec": 30.0,
      "min_elevation_deg": 25.0,
      "name": "Adelaide, Australia"
    },
    {
      "altitude_m": 0.0,
      "expected_revisit_period_hours": 6.0,
      "id": "target_002",
      "latitude_deg": -36.8492,
      "longitude_deg": 174.7653,
      "max_slant_range_m": 1800000.0,
      "min_duration_sec": 30.0,
      "min_elevation_deg": 25.0,
      "name": "Auckland, New Zealand"
    },
    {
      "altitude_m": 0.0,
      "expected_revisit_period_hours": 6.0,
      "id": "target_003",
      "latitude_deg": 6.2069,
      "longitude_deg": 7.0678,
      "max_slant_range_m": 1800000.0,
      "min_duration_sec": 30.0,
      "min_elevation_deg": 25.0,
      "name": "Awka, Nigeria"
    },
    {
      "altitude_m": 0.0,
      "expected_revisit_period_hours": 6.0,
      "id": "target_004",
      "latitude_deg": 39.9067,
      "longitude_deg": 116.3975,
      "max_slant_range_m": 1800000.0,
      "min_duration_sec": 30.0,
      "min_elevation_deg": 25.0,
      "name": "Beijing, China"
    },
    {
      "altitude_m": 0.0,
      "expected_revisit_period_hours": 6.0,
      "id": "target_005",
      "latitude_deg": 33.8981,
      "longitude_deg": 35.5058,
      "max_slant_range_m": 1800000.0,
      "min_duration_sec": 30.0,
      "min_elevation_deg": 25.0,
      "name": "Beirut, Lebanon"
    },
    {
      "altitude_m": 0.0,
      "expected_revisit_period_hours": 6.0,
      "id": "target_006",
      "latitude_deg": 30.0444,
      "longitude_deg": 31.2358,
      "max_slant_range_m": 1800000.0,
      "min_duration_sec": 30.0,
      "min_elevation_deg": 25.0,
      "name": "Cairo, Egypt"
    },
    {
      "altitude_m": 0.0,
      "expected_revisit_period_hours": 6.0,
      "id": "target_007",
      "latitude_deg": -6.8161,
      "longitude_deg": 39.2803,
      "max_slant_range_m": 1800000.0,
      "min_duration_sec": 30.0,
      "min_elevation_deg": 25.0,
      "name": "Dar es Salaam, Tanzania"
    },
    {
      "altitude_m": 0.0,
      "expected_revisit_period_hours": 6.0,
      "id": "target_008",
      "latitude_deg": 23.7289,
      "longitude_deg": 90.3944,
      "max_slant_range_m": 1800000.0,
      "min_duration_sec": 30.0,
      "min_elevation_deg": 25.0,
      "name": "Dhaka, Bangladesh"
    },
    {
      "altitude_m": 0.0,
      "expected_revisit_period_hours": 6.0,
      "id": "target_009",
      "latitude_deg": 25.2631,
      "longitude_deg": 55.2972,
      "max_slant_range_m": 1800000.0,
      "min_duration_sec": 30.0,
      "min_elevation_deg": 25.0,
      "name": "Dubai, United Arab Emirates"
    },
    {
      "altitude_m": 0.0,
      "expected_revisit_period_hours": 6.0,
      "id": "target_010",
      "latitude_deg": -16.6806,
      "longitude_deg": -49.2564,
      "max_slant_range_m": 1800000.0,
      "min_duration_sec": 30.0,
      "min_elevation_deg": 25.0,
      "name": "Goi\u00e2nia, Brazil"
    },
    {
      "altitude_m": 0.0,
      "expected_revisit_period_hours": 6.0,
      "id": "target_011",
      "latitude_deg": 23.13,
      "longitude_deg": 113.26,
      "max_slant_range_m": 1800000.0,
      "min_duration_sec": 30.0,
      "min_elevation_deg": 25.0,
      "name": "Guangzhou, China"
    },
    {
      "altitude_m": 0.0,
      "expected_revisit_period_hours": 6.0,
      "id": "target_012",
      "latitude_deg": 15.6031,
      "longitude_deg": 32.5265,
      "max_slant_range_m": 1800000.0,
      "min_duration_sec": 30.0,
      "min_elevation_deg": 25.0,
      "name": "Khartoum, Sudan"
    },
    {
      "altitude_m": 0.0,
      "expected_revisit_period_hours": 6.0,
      "id": "target_013",
      "latitude_deg": 3.1686,
      "longitude_deg": 101.698,
      "max_slant_range_m": 1800000.0,
      "min_duration_sec": 30.0,
      "min_elevation_deg": 25.0,
      "name": "Kuala Lumpur, Malaysia"
    },
    {
      "altitude_m": 0.0,
      "expected_revisit_period_hours": 6.0,
      "id": "target_014",
      "latitude_deg": -12.06,
      "longitude_deg": -77.0375,
      "max_slant_range_m": 1800000.0,
      "min_duration_sec": 30.0,
      "min_elevation_deg": 25.0,
      "name": "Lima, Peru"
    },
    {
      "altitude_m": 0.0,
      "expected_revisit_period_hours": 6.0,
      "id": "target_015",
      "latitude_deg": 51.5072,
      "longitude_deg": -0.1275,
      "max_slant_range_m": 1800000.0,
      "min_duration_sec": 30.0,
      "min_elevation_deg": 25.0,
      "name": "London, United Kingdom"
    },
    {
      "altitude_m": 0.0,
      "expected_revisit_period_hours": 6.0,
      "id": "target_016",
      "latitude_deg": 34.1141,
      "longitude_deg": -118.4068,
      "max_slant_range_m": 1800000.0,
      "min_duration_sec": 30.0,
      "min_elevation_deg": 25.0,
      "name": "Los Angeles, United States"
    },
    {
      "altitude_m": 0.0,
      "expected_revisit_period_hours": 6.0,
      "id": "target_017",
      "latitude_deg": 14.5958,
      "longitude_deg": 120.9772,
      "max_slant_range_m": 1800000.0,
      "min_duration_sec": 30.0,
      "min_elevation_deg": 25.0,
      "name": "Manila, Philippines"
    },
    {
      "altitude_m": 0.0,
      "expected_revisit_period_hours": 6.0,
      "id": "target_018",
      "latitude_deg": 19.0761,
      "longitude_deg": 72.8775,
      "max_slant_range_m": 1800000.0,
      "min_duration_sec": 30.0,
      "min_elevation_deg": 25.0,
      "name": "Mumbai, India"
    },
    {
      "altitude_m": 0.0,
      "expected_revisit_period_hours": 6.0,
      "id": "target_019",
      "latitude_deg": 32.9902,
      "longitude_deg": 112.5285,
      "max_slant_range_m": 1800000.0,
      "min_duration_sec": 30.0,
      "min_elevation_deg": 25.0,
      "name": "Nanyang, China"
    },
    {
      "altitude_m": 0.0,
      "expected_revisit_period_hours": 6.0,
      "id": "target_020",
      "latitude_deg": 40.6943,
      "longitude_deg": -73.9249,
      "max_slant_range_m": 1800000.0,
      "min_duration_sec": 30.0,
      "min_elevation_deg": 25.0,
      "name": "New York, United States"
    },
    {
      "altitude_m": 0.0,
      "expected_revisit_period_hours": 6.0,
      "id": "target_021",
      "latitude_deg": 55.05,
      "longitude_deg": 82.95,
      "max_slant_range_m": 1800000.0,
      "min_duration_sec": 30.0,
      "min_elevation_deg": 25.0,
      "name": "Novosibirsk, Russia"
    },
    {
      "altitude_m": 0.0,
      "expected_revisit_period_hours": 6.0,
      "id": "target_022",
      "latitude_deg": 45.5371,
      "longitude_deg": -122.65,
      "max_slant_range_m": 1800000.0,
      "min_duration_sec": 30.0,
      "min_elevation_deg": 25.0,
      "name": "Portland, United States"
    },
    {
      "altitude_m": 0.0,
      "expected_revisit_period_hours": 6.0,
      "id": "target_023",
      "latitude_deg": -25.7461,
      "longitude_deg": 28.1881,
      "max_slant_range_m": 1800000.0,
      "min_duration_sec": 30.0,
      "min_elevation_deg": 25.0,
      "name": "Pretoria, South Africa"
    },
    {
      "altitude_m": 0.0,
      "expected_revisit_period_hours": 6.0,
      "id": "target_024",
      "latitude_deg": 24.65,
      "longitude_deg": 46.71,
      "max_slant_range_m": 1800000.0,
      "min_duration_sec": 30.0,
      "min_elevation_deg": 25.0,
      "name": "Riyadh, Saudi Arabia"
    },
    {
      "altitude_m": 0.0,
      "expected_revisit_period_hours": 6.0,
      "id": "target_025",
      "latitude_deg": 59.9375,
      "longitude_deg": 30.3086,
      "max_slant_range_m": 1800000.0,
      "min_duration_sec": 30.0,
      "min_elevation_deg": 25.0,
      "name": "Saint Petersburg, Russia"
    },
    {
      "altitude_m": 0.0,
      "expected_revisit_period_hours": 6.0,
      "id": "target_026",
      "latitude_deg": 29.4632,
      "longitude_deg": -98.5238,
      "max_slant_range_m": 1800000.0,
      "min_duration_sec": 30.0,
      "min_elevation_deg": 25.0,
      "name": "San Antonio, United States"
    },
    {
      "altitude_m": 0.0,
      "expected_revisit_period_hours": 6.0,
      "id": "target_027",
      "latitude_deg": 18.3985,
      "longitude_deg": -66.061,
      "max_slant_range_m": 1800000.0,
      "min_duration_sec": 30.0,
      "min_elevation_deg": 25.0,
      "name": "San Juan, Puerto Rico"
    },
    {
      "altitude_m": 0.0,
      "expected_revisit_period_hours": 6.0,
      "id": "target_028",
      "latitude_deg": 37.5667,
      "longitude_deg": 126.9833,
      "max_slant_range_m": 1800000.0,
      "min_duration_sec": 30.0,
      "min_elevation_deg": 25.0,
      "name": "Seoul, Korea, South"
    },
    {
      "altitude_m": 0.0,
      "expected_revisit_period_hours": 6.0,
      "id": "target_029",
      "latitude_deg": 31.2286,
      "longitude_deg": 121.4747,
      "max_slant_range_m": 1800000.0,
      "min_duration_sec": 30.0,
      "min_elevation_deg": 25.0,
      "name": "Shanghai, China"
    },
    {
      "altitude_m": 0.0,
      "expected_revisit_period_hours": 6.0,
      "id": "target_030",
      "latitude_deg": -7.2458,
      "longitude_deg": 112.7378,
      "max_slant_range_m": 1800000.0,
      "min_duration_sec": 30.0,
      "min_elevation_deg": 25.0,
      "name": "Surabaya, Indonesia"
    },
    {
      "altitude_m": 0.0,
      "expected_revisit_period_hours": 6.0,
      "id": "target_031",
      "latitude_deg": 35.687,
      "longitude_deg": 139.7495,
      "max_slant_range_m": 1800000.0,
      "min_duration_sec": 30.0,
      "min_elevation_deg": 25.0,
      "name": "Tokyo, Japan"
    },
    {
      "altitude_m": 0.0,
      "expected_revisit_period_hours": 6.0,
      "id": "target_032",
      "latitude_deg": 39.47,
      "longitude_deg": -0.3764,
      "max_slant_range_m": 1800000.0,
      "min_duration_sec": 30.0,
      "min_elevation_deg": 25.0,
      "name": "Valencia, Spain"
    }
  ]
}
