{
  "horizon_end": "2025-07-19T12:00:00Z",
  "horizon_start": "2025-07-17T12:00:00Z",
  "targets": [
    {
      "altitude_m": 0.0,
      "expected_revisit_period_hours": 6.0,
      "id": "target_001",
      "latitude_deg": -25.0667,
      "longitude_deg": -130.0833,
      "max_slant_range_m": 1800000.0,
      "min_duration_sec": 30.0,
      "min_elevation_deg": 20.0,
      "name": "Adamstown, Pitcairn Islands"
    },
    {
      "altitude_m": 0.0,
      "expected_revisit_period_hours": 6.0,
      "id": "target_002",
      "latitude_deg": -24.3687,
      "longitude_deg": 47.163,
      "max_slant_range_m": 1800000.0,
      "min_duration_sec": 30.0,
      "min_elevation_deg": 20.0,
      "name": "Ampasimena, Madagascar"
    },
    {
      "altitude_m": 0.0,
      "expected_revisit_period_hours": 6.0,
      "id": "target_003",
      "latitude_deg": 22.8897,
      "longitude_deg": -109.9156,
      "max_slant_range_m": 1800000.0,
      "min_duration_sec": 30.0,
      "min_elevation_deg": 20.0,
      "name": "Cabo San Lucas, Mexico"
    },
    {
      "altitude_m": 0.0,
      "expected_revisit_period_hours": 6.0,
      "id": "target_004",
      "latitude_deg": -10.6478,
      "longitude_deg": -36.9889,
      "max_slant_range_m": 1800000.0,
      "min_duration_sec": 30.0,
      "min_elevation_deg": 20.0,
      "name": "Carm\u00f3polis, Brazil"
    },
    {
      "altitude_m": 0.0,
      "expected_revisit_period_hours": 6.0,
      "id": "target_005",
      "latitude_deg": 48.9578,
      "longitude_deg": -55.6633,
      "max_slant_range_m": 1800000.0,
      "min_duration_sec": 30.0,
      "min_elevation_deg": 20.0,
      "name": "Grand Falls, Canada"
    },
    {
      "altitude_m": 0.0,
      "expected_revisit_period_hours": 6.0,
      "id": "target_006",
      "latitude_deg": -54.2806,
      "longitude_deg": -36.508,
      "max_slant_range_m": 1800000.0,
      "min_duration_sec": 30.0,
      "min_elevation_deg": 20.0,
      "name": "Grytviken, South Georgia and South Sandwich Islands"
    },
    {
      "altitude_m": 0.0,
      "expected_revisit_period_hours": 6.0,
      "id": "target_007",
      "latitude_deg": 19.5828,
      "longitude_deg": -154.9695,
      "max_slant_range_m": 1800000.0,
      "min_duration_sec": 30.0,
      "min_elevation_deg": 20.0,
      "name": "Hawaiian Paradise Park, United States"
    },
    {
      "altitude_m": 0.0,
      "expected_revisit_period_hours": 6.0,
      "id": "target_008",
      "latitude_deg": -15.9251,
      "longitude_deg": -5.7179,
      "max_slant_range_m": 1800000.0,
      "min_duration_sec": 30.0,
      "min_elevation_deg": 20.0,
      "name": "Jamestown, Saint Helena, Ascension, and Tristan da Cunha"
    },
    {
      "altitude_m": 0.0,
      "expected_revisit_period_hours": 6.0,
      "id": "target_009",
      "latitude_deg": 38.2636,
      "longitude_deg": 101.8328,
      "max_slant_range_m": 1800000.0,
      "min_duration_sec": 30.0,
      "min_elevation_deg": 20.0,
      "name": "Jiaojiazhuang, China"
    },
    {
      "altitude_m": 0.0,
      "expected_revisit_period_hours": 6.0,
      "id": "target_010",
      "latitude_deg": 58.4546,
      "longitude_deg": -134.1739,
      "max_slant_range_m": 1800000.0,
      "min_duration_sec": 30.0,
      "min_elevation_deg": 20.0,
      "name": "Juneau, United States"
    },
    {
      "altitude_m": 0.0,
      "expected_revisit_period_hours": 6.0,
      "id": "target_011",
      "latitude_deg": -33.1396,
      "longitude_deg": 136.4191,
      "max_slant_range_m": 1800000.0,
      "min_duration_sec": 30.0,
      "min_elevation_deg": 20.0,
      "name": "Kimba, Australia"
    },
    {
      "altitude_m": 0.0,
      "expected_revisit_period_hours": 6.0,
      "id": "target_012",
      "latitude_deg": 20.6592,
      "longitude_deg": -75.6781,
      "max_slant_range_m": 1800000.0,
      "min_duration_sec": 30.0,
      "min_elevation_deg": 20.0,
      "name": "Mayar\u00ed, Cuba"
    },
    {
      "altitude_m": 0.0,
      "expected_revisit_period_hours": 6.0,
      "id": "target_013",
      "latitude_deg": 13.5956,
      "longitude_deg": 123.1781,
      "max_slant_range_m": 1800000.0,
      "min_duration_sec": 30.0,
      "min_elevation_deg": 20.0,
      "name": "Milaor, Philippines"
    },
    {
      "altitude_m": 0.0,
      "expected_revisit_period_hours": 6.0,
      "id": "target_014",
      "latitude_deg": 19.0761,
      "longitude_deg": 72.8775,
      "max_slant_range_m": 1800000.0,
      "min_duration_sec": 30.0,
      "min_elevation_deg": 20.0,
      "name": "Mumbai, India"
    },
    {
      "altitude_m": 0.0,
      "expected_revisit_period_hours": 6.0,
      "id": "target_015",
      "latitude_deg": 63.6667,
      "longitude_deg": 71.3333,
      "max_slant_range_m": 1800000.0,
      "min_duration_sec": 30.0,
      "min_elevation_deg": 20.0,
      "name": "Numto, Russia"
    },
    {
      "altitude_m": 0.0,
      "expected_revisit_period_hours": 6.0,
      "id": "target_016",
      "latitude_deg": 53.0167,
      "longitude_deg": 158.65,
      "max_slant_range_m": 1800000.0,
      "min_duration_sec": 30.0,
      "min_elevation_deg": 20.0,
      "name": "Petropavlovsk-Kamchatskiy, Russia"
    },
    {
      "altitude_m": 0.0,
      "expected_revisit_period_hours": 6.0,
      "id": "target_017",
      "latitude_deg": 17.202,
      "longitude_deg": -25.093,
      "max_slant_range_m": 1800000.0,
      "min_duration_sec": 30.0,
      "min_elevation_deg": 20.0,
      "name": "Ponta do Sol, Cabo Verde"
    },
    {
      "altitude_m": 0.0,
      "expected_revisit_period_hours": 6.0,
      "id": "target_018",
      "latitude_deg": -10.1497,
      "longitude_deg": -67.7374,
      "max_slant_range_m": 1800000.0,
      "min_duration_sec": 30.0,
      "min_elevation_deg": 20.0,
      "name": "Senador Guiomard, Brazil"
    },
    {
      "altitude_m": 0.0,
      "expected_revisit_period_hours": 6.0,
      "id": "target_019",
      "latitude_deg": 1.3382,
      "longitude_deg": 173.0176,
      "max_slant_range_m": 1800000.0,
      "min_duration_sec": 30.0,
      "min_elevation_deg": 20.0,
      "name": "Tarawa, Kiribati"
    },
    {
      "altitude_m": 0.0,
      "expected_revisit_period_hours": 6.0,
      "id": "target_020",
      "latitude_deg": -43.9514,
      "longitude_deg": -176.5611,
      "max_slant_range_m": 1800000.0,
      "min_duration_sec": 30.0,
      "min_elevation_deg": 20.0,
      "name": "Waitangi, New Zealand"
    },
    {
      "altitude_m": 0.0,
      "expected_revisit_period_hours": 6.0,
      "id": "target_021",
      "latitude_deg": 8.6667,
      "longitude_deg": 39.4333,
      "max_slant_range_m": 1800000.0,
      "min_duration_sec": 30.0,
      "min_elevation_deg": 20.0,
      "name": "Welench\u2019\u012bt\u012b, Ethiopia"
    },
    {
      "altitude_m": 0.0,
      "expected_revisit_period_hours": 6.0,
      "id": "target_022",
      "latitude_deg": 35.0,
      "longitude_deg": 16.0,
      "max_slant_range_m": 1800000.0,
      "min_duration_sec": 30.0,
      "min_elevation_deg": 20.0,
      "name": "Yokosuka, Japan"
    }
  ]
}
