{
  "horizon_end": "2025-07-19T12:00:00Z",
  "horizon_start": "2025-07-17T12:00:00Z",
  "targets": [
    {
      "altitude_m": 0.0,
      "expected_revisit_period_hours": 6.0,
      "id": "target_001",
      "latitude_deg": 9.03,
      "longitude_deg": 38.74,
      "max_slant_range_m": 1800000.0,
      "min_duration_sec": 30.0,
      "min_elevation_deg": 20.0,
      "name": "Addis Ababa, Ethiopia"
    },
    {
      "altitude_m": 0.0,
      "expected_revisit_period_hours": 6.0,
      "id": "target_002",
      "latitude_deg": -36.8492,
      "longitude_deg": 174.7653,
      "max_slant_range_m": 1800000.0,
      "min_duration_sec": 30.0,
      "min_elevation_deg": 20.0,
      "name": "Auckland, New Zealand"
    },
    {
      "altitude_m": 0.0,
      "expected_revisit_period_hours": 6.0,
      "id": "target_003",
      "latitude_deg": 38.874,
      "longitude_deg": 115.464,
      "max_slant_range_m": 1800000.0,
      "min_duration_sec": 30.0,
      "min_elevation_deg": 20.0,
      "name": "Baoding, China"
    },
    {
      "altitude_m": 0.0,
      "expected_revisit_period_hours": 6.0,
      "id": "target_004",
      "latitude_deg": -19.9281,
      "longitude_deg": -43.9419,
      "max_slant_range_m": 1800000.0,
      "min_duration_sec": 30.0,
      "min_elevation_deg": 20.0,
      "name": "Belo Horizonte, Brazil"
    },
    {
      "altitude_m": 0.0,
      "expected_revisit_period_hours": 6.0,
      "id": "target_005",
      "latitude_deg": 52.48,
      "longitude_deg": -1.9025,
      "max_slant_range_m": 1800000.0,
      "min_duration_sec": 30.0,
      "min_elevation_deg": 20.0,
      "name": "Birmingham, United Kingdom"
    },
    {
      "altitude_m": 0.0,
      "expected_revisit_period_hours": 6.0,
      "id": "target_006",
      "latitude_deg": -33.9253,
      "longitude_deg": 18.4239,
      "max_slant_range_m": 1800000.0,
      "min_duration_sec": 30.0,
      "min_elevation_deg": 20.0,
      "name": "Cape Town, South Africa"
    },
    {
      "altitude_m": 0.0,
      "expected_revisit_period_hours": 6.0,
      "id": "target_007",
      "latitude_deg": 13.0825,
      "longitude_deg": 80.275,
      "max_slant_range_m": 1800000.0,
      "min_duration_sec": 30.0,
      "min_elevation_deg": 20.0,
      "name": "Chennai, India"
    },
    {
      "altitude_m": 0.0,
      "expected_revisit_period_hours": 6.0,
      "id": "target_008",
      "latitude_deg": 32.7935,
      "longitude_deg": -96.7667,
      "max_slant_range_m": 1800000.0,
      "min_duration_sec": 30.0,
      "min_elevation_deg": 20.0,
      "name": "Dallas, United States"
    },
    {
      "altitude_m": 0.0,
      "expected_revisit_period_hours": 6.0,
      "id": "target_009",
      "latitude_deg": -6.8161,
      "longitude_deg": 39.2803,
      "max_slant_range_m": 1800000.0,
      "min_duration_sec": 30.0,
      "min_elevation_deg": 20.0,
      "name": "Dar es Salaam, Tanzania"
    },
    {
      "altitude_m": 0.0,
      "expected_revisit_period_hours": 6.0,
      "id": "target_010",
      "latitude_deg": 23.7289,
      "longitude_deg": 90.3944,
      "max_slant_range_m": 1800000.0,
      "min_duration_sec": 30.0,
      "min_elevation_deg": 20.0,
      "name": "Dhaka, Bangladesh"
    },
    {
      "altitude_m": 0.0,
      "expected_revisit_period_hours": 6.0,
      "id": "target_011",
      "latitude_deg": 23.13,
      "longitude_deg": 113.26,
      "max_slant_range_m": 1800000.0,
      "min_duration_sec": 30.0,
      "min_elevation_deg": 20.0,
      "name": "Guangzhou, China"
    },
    {
      "altitude_m": 0.0,
      "expected_revisit_period_hours": 6.0,
      "id": "target_012",
      "latitude_deg": -6.175,
      "longitude_deg": 106.8275,
      "max_slant_range_m": 1800000.0,
      "min_duration_sec": 30.0,
      "min_elevation_deg": 20.0,
      "name": "Jakarta, Indonesia"
    },
    {
      "altitude_m": 0.0,
      "expected_revisit_period_hours": 6.0,
      "id": "target_013",
      "latitude_deg": 24.86,
      "longitude_deg": 67.01,
      "max_slant_range_m": 1800000.0,
      "min_duration_sec": 30.0,
      "min_elevation_deg": 20.0,
      "name": "Karachi, Pakistan"
    },
    {
      "altitude_m": 0.0,
      "expected_revisit_period_hours": 6.0,
      "id": "target_014",
      "latitude_deg": 22.5675,
      "longitude_deg": 88.37,
      "max_slant_range_m": 1800000.0,
      "min_duration_sec": 30.0,
      "min_elevation_deg": 20.0,
      "name": "Kolk\u0101ta, India"
    },
    {
      "altitude_m": 0.0,
      "expected_revisit_period_hours": 6.0,
      "id": "target_015",
      "latitude_deg": 3.1686,
      "longitude_deg": 101.698,
      "max_slant_range_m": 1800000.0,
      "min_duration_sec": 30.0,
      "min_elevation_deg": 20.0,
      "name": "Kuala Lumpur, Malaysia"
    },
    {
      "altitude_m": 0.0,
      "expected_revisit_period_hours": 6.0,
      "id": "target_016",
      "latitude_deg": -12.06,
      "longitude_deg": -77.0375,
      "max_slant_range_m": 1800000.0,
      "min_duration_sec": 30.0,
      "min_elevation_deg": 20.0,
      "name": "Lima, Peru"
    },
    {
      "altitude_m": 0.0,
      "expected_revisit_period_hours": 6.0,
      "id": "target_017",
      "latitude_deg": 14.5958,
      "longitude_deg": 120.9772,
      "max_slant_range_m": 1800000.0,
      "min_duration_sec": 30.0,
      "min_elevation_deg": 20.0,
      "name": "Manila, Philippines"
    },
    {
      "altitude_m": 0.0,
      "expected_revisit_period_hours": 6.0,
      "id": "target_018",
      "latitude_deg": -37.8142,
      "longitude_deg": 144.9631,
      "max_slant_range_m": 1800000.0,
      "min_duration_sec": 30.0,
      "min_elevation_deg": 20.0,
      "name": "Melbourne, Australia"
    },
    {
      "altitude_m": 0.0,
      "expected_revisit_period_hours": 6.0,
      "id": "target_019",
      "latitude_deg": 25.784,
      "longitude_deg": -80.2101,
      "max_slant_range_m": 1800000.0,
      "min_duration_sec": 30.0,
      "min_elevation_deg": 20.0,
      "name": "Miami, United States"
    },
    {
      "altitude_m": 0.0,
      "expected_revisit_period_hours": 6.0,
      "id": "target_020",
      "latitude_deg": 19.0761,
      "longitude_deg": 72.8775,
      "max_slant_range_m": 1800000.0,
      "min_duration_sec": 30.0,
      "min_elevation_deg": 20.0,
      "name": "Mumbai, India"
    },
    {
      "altitude_m": 0.0,
      "expected_revisit_period_hours": 6.0,
      "id": "target_021",
      "latitude_deg": 6.1667,
      "longitude_deg": 6.7833,
      "max_slant_range_m": 1800000.0,
      "min_duration_sec": 30.0,
      "min_elevation_deg": 20.0,
      "name": "Onitsha, Nigeria"
    },
    {
      "altitude_m": 0.0,
      "expected_revisit_period_hours": 6.0,
      "id": "target_022",
      "latitude_deg": 35.6889,
      "longitude_deg": 51.3897,
      "max_slant_range_m": 1800000.0,
      "min_duration_sec": 30.0,
      "min_elevation_deg": 20.0,
      "name": "Tehran, Iran"
    }
  ]
}
